[
  {
    "sid" : "1",
    "name" : "삼천리 자전거 서초점",
    "address" : "서울 서초구 양재천로21길 29 정인빌딩 101호",
    "phone" : "02-591-5322",
    "lat": 37.47694,
    "lng": 127.03917,
    "url": "https://map.naver.com/p/search/%EC%82%BC%EC%B2%9C%EB%A6%AC%EC%9E%90%EC%A0%84%EA%B1%B0%20%EC%84%9C%EC%B4%88%EC%A0%90/place/37302174?c=14.00,0,0,0,dh&isCorrectAnswer=true"
  },
  {
    "sid" : "2",
    "name" : "삼천리 자전거 강남점",
    "address" : "서울 강남구 개포로 260",
    "phone" : "02-573-2909",
    "lat": 37.47917,
    "lng": 127.05083,
    "url": "https://map.naver.com/p/search/%EC%82%BC%EC%B2%9C%EB%A6%AC%EC%9E%90%EC%A0%84%EA%B1%B0%20%EA%B0%95%EB%82%A8%EC%A0%90/place/13449524?c=15.00,0,0,0,dh&isCorrectAnswer=true&placePath=/home?from=map&fromPanelNum=1&additionalHeight=76&timestamp=202512011242&locale=ko&svcName=map_pcv5&searchText=%EC%82%BC%EC%B2%9C%EB%A6%AC%EC%9E%90%EC%A0%84%EA%B1%B0%20%EA%B0%95%EB%82%A8%EC%A0%90"
  },
  {
    "sid" : "3",
    "name" : "삼천리 자전거 장지점",
    "address" : "서울 송파구 새말로8길 5",
    "phone" : "02-414-7300",
    "lat": 37.48222,
    "lng": 127.12639,
    "url": "https://map.naver.com/p/search/%EC%82%BC%EC%B2%9C%EB%A6%AC%EC%9E%90%EC%A0%84%EA%B1%B0%20%EC%9E%A5%EC%A7%80%EC%A0%90/place/1810550485?c=15.00,0,0,0,dh&placePath=/home?entry=bmp&from=map&fromPanelNum=2&timestamp=202512011243&locale=ko&svcName=map_pcv5&searchText=%EC%82%BC%EC%B2%9C%EB%A6%AC%EC%9E%90%EC%A0%84%EA%B1%B0%20%EC%9E%A5%EC%A7%80%EC%A0%90"
  },
  {
    "sid" : "4",
    "name" : "삼천리 자전거 오금동부점",
    "address" : "서울 송파구 동남로 272",
    "phone" : "02-591-5322",
    "lat": 37.49972,
    "lng": 127.13639,
    "url": "https://map.naver.com/p/entry/place/917356524?c=15.00,0,0,0,dh&placePath=/home?from=map&fromPanelNum=1&additionalHeight=76&timestamp=202512011243&locale=ko&svcName=map_pcv5"
  },
  {
    "sid" : "5",
    "name" : "삼천리 자전거 오금동점",
    "address" : "서울특별시 송파구 마천로 104",
    "phone" : "02-591-5322",
    "lat": 37.50583,
    "lng": 127.13111,
    "url": "https://map.naver.com/p/entry/place/917356524?c=15.00,0,0,0,dh&placePath=/home?from=map&fromPanelNum=1&additionalHeight=76&timestamp=202512011243&locale=ko&svcName=map_pcv5"
  },
  {
    "sid" : "6",
    "name" : "삼천리 자전거 암사점",
    "address" : "서울 강동구 고덕로 85 1층 삼천리자전거",
    "phone" : "02-591-5322",
    "lat": 37.54972,
    "lng": 127.12861,
    "url": "https://map.naver.com/p/search/%EC%82%BC%EC%B2%9C%EB%A6%AC%EC%9E%90%EC%A0%84%EA%B1%B0%20%EC%95%94%EC%82%AC%EC%A0%90/place/931228329?c=15.00,0,0,0,dh&isCorrectAnswer=true&placePath=/home?from=map&fromPanelNum=1&additionalHeight=76&timestamp=202512011244&locale=ko&svcName=map_pcv5&searchText=%EC%82%BC%EC%B2%9C%EB%A6%AC%EC%9E%90%EC%A0%84%EA%B1%B0%20%EC%95%94%EC%82%AC%EC%A0%90"
  }
]